[
    {
        "id": "111706",
        "name": "Accenture LLP",
        "status": "Green",
        "licenceStatus": "Active",
        "customerStatus": "Active",
        "addressType": "Billing",
        "country": "United States",
        "state": "CA",
        "city": "Sacramento",
        "street": "2329 Gateway Oaks Dr.",
        "postal": "95833",
        "add_details": "2329, Gateway Oaks Drive, Sacramento, Sacramento County, CAL Fire Northern Region, California, 95833, United States (accuracy : street)",
        "geometry": {
            "type": "Point",
            "coordinates": [
                "-121.51763061005825",
                "38.6104581469563"
            ]
        }
    },
    {
        "id": "85091",
        "name": "Avaak Inc",
        "status": "Green",
        "licenceStatus": "Active",
        "customerStatus": "Active",
        "addressType": "Billing",
        "country": "United States",
        "state": "CA",
        "city": "SAN DIEGO",
        "street": "6815 Flanders, Suite 200",
        "postal": "92126",
        "add_details": "6815, Flanders Drive, Sorrento Valley, San Diego, San Diego County, CAL Fire Southern Region, California, 92121, United States (accuracy : street)",
        "geometry": {
            "type": "Point",
            "coordinates": [
                "-117.17643956685892",
                "32.90353635"
            ]
        }
    },
    {
        "id": "76133",
        "name": "Cisco Systems Inc - Cisco Consumer Products",
        "status": "Green",
        "licenceStatus": "Active",
        "customerStatus": "Active",
        "addressType": "Billing",
        "country": "United States",
        "state": "CA",
        "city": "Irvine",
        "street": "PO Box 5629",
        "postal": "92616",
        "add_details": "United States (accuracy : postal code)",
        "geometry": {
            "type": "Point",
            "coordinates": [
                "-100.445882",
                "39.7837304"
            ]
        }
    },
    {
        "id": "47668",
        "name": "Cisco-Linksys, LLC. (fka Pure Networks)",
        "status": "Green",
        "licenceStatus": "Active",
        "customerStatus": "Active",
        "addressType": "Billing",
        "country": "United States",
        "state": "CA",
        "city": "IRVINE",
        "street": "PO Box 5629",
        "postal": "92616",
        "add_details": "United States (accuracy : postal code)",
        "geometry": {
            "type": "Point",
            "coordinates": [
                "-100.445882",
                "39.7837304"
            ]
        }
    },
    {
        "id": "71555",
        "name": "Epson America",
        "status": "Green",
        "licenceStatus": "Active",
        "customerStatus": "Active",
        "addressType": "Billing",
        "country": "United States",
        "state": "CA",
        "city": "LONG BEACH",
        "street": "P.O. Box 93012",
        "postal": "90809-9941",
        "add_details": "United States (accuracy : postal code)",
        "geometry": {
            "type": "Point",
            "coordinates": [
                "-100.445882",
                "39.7837304"
            ]
        }
    },
    {
        "id": "48609",
        "name": "Fellowship Technologies",
        "status": "Yellow",
        "licenceStatus": "Active",
        "customerStatus": "Active",
        "addressType": "Billing",
        "country": "United States",
        "state": "CA",
        "city": "San Diego",
        "street": "10182 Telesis Court, Ste. 100",
        "postal": "92121",
        "add_details": "10182, Telesis Court, San Diego, San Diego County, California, 92121, United States (accuracy : street)",
        "geometry": {
            "type": "Point",
            "coordinates": [
                "-117.2078233041469",
                "32.901776645141524"
            ]
        }
    },
    {
        "id": "97099",
        "name": "First Republic Bank",
        "status": "Yellow",
        "licenceStatus": "Active",
        "customerStatus": "Active",
        "addressType": "Billing",
        "country": "United States",
        "state": "CA",
        "city": "San Francisco",
        "street": "111 Pine Street",
        "postal": "94111",
        "add_details": "111, Pine Street, Financial District, San Francisco, CAL Fire Northern Region, California, 94111, United States (accuracy : street)",
        "geometry": {
            "type": "Point",
            "coordinates": [
                "-122.3990864",
                "37.7922256"
            ]
        }
    },
    {
        "id": "814",
        "name": "Foundation for California Community Colleges",
        "status": "Green",
        "licenceStatus": "Active",
        "customerStatus": "Active",
        "addressType": "Billing",
        "country": "United States",
        "state": "CA",
        "city": "Sacramento",
        "street": "1102 Q Street, Third Floor",
        "postal": "95814",
        "add_details": "1102, Q Street, Downtown, Sacramento, Sacramento County, CAL Fire Northern Region, California, 95816, United States (accuracy : street)",
        "geometry": {
            "type": "Point",
            "coordinates": [
                "-121.49500938984755",
                "38.57170855"
            ]
        }
    },
    {
        "id": "815",
        "name": "Fujitsu America",
        "status": "Yellow",
        "licenceStatus": "Active",
        "customerStatus": "Active",
        "addressType": "Billing",
        "country": "United States",
        "state": "CA",
        "city": "SUNNYVALE",
        "street": "1250 E. Arques Avenue",
        "postal": "94085",
        "add_details": "Fujitsu PFU (Building A), 1250, East Arques Avenue, Sunnyvale, Santa Clara County, California, 95054, United States (accuracy : street)",
        "geometry": {
            "type": "Point",
            "coordinates": [
                "-121.99073960388873",
                "37.379493"
            ]
        }
    },
    {
        "id": "96183",
        "name": "IOGEAR",
        "status": "Green",
        "licenceStatus": "Active",
        "customerStatus": "Active",
        "addressType": "Billing",
        "country": "United States",
        "state": "CA",
        "city": "Foothill Ranch",
        "street": "19641 Da Vinci",
        "postal": "94568",
        "add_details": "19641, Da Vinci, Foothill Corporate Centre, Foothill Ranch, Lake Forest, Orange County, CAL Fire Southern Region, California, 92610, United States (accuracy : street)",
        "geometry": {
            "type": "Point",
            "coordinates": [
                "-117.65504840641273",
                "33.67677355"
            ]
        }
    },
    {
        "id": "84084",
        "name": "Itochu (CTC)",
        "status": "Green",
        "licenceStatus": "Active",
        "customerStatus": "Active",
        "addressType": "Billing",
        "country": "United States",
        "state": "CA",
        "city": "SANTA CLARA",
        "street": "3945 Freedom Circle",
        "postal": "95054",
        "add_details": "3945, Freedom Circle, Santa Clara, Santa Clara County, California, 95054, United States (accuracy : street)",
        "geometry": {
            "type": "Point",
            "coordinates": [
                "-121.97260136734694",
                "37.390492459183676"
            ]
        }
    },
    {
        "id": "74695",
        "name": "Masimo",
        "status": "Red",
        "licenceStatus": "Active",
        "customerStatus": "Active",
        "addressType": "Billing",
        "country": "United States",
        "state": "CA",
        "city": "IRVINE",
        "street": "40 Parker",
        "postal": "92618",
        "add_details": "40, Parker, Irvine Spectrum, Irvine, Orange County, CAL Fire Southern Region, California, 92618, United States (accuracy : street)",
        "geometry": {
            "type": "Point",
            "coordinates": [
                "-117.70304837194318",
                "33.658222699999996"
            ]
        }
    },
    {
        "id": "86545",
        "name": "Molecular Device Corporation",
        "status": "Green",
        "licenceStatus": "Active",
        "customerStatus": "Active",
        "addressType": "Billing",
        "country": "United States",
        "state": "CA",
        "city": "Sunnyvale",
        "street": "1311 Orleans Drive",
        "postal": "94089",
        "add_details": "1311, Orleans Drive, Sunnyvale, Santa Clara County, California, 94089, United States (accuracy : street)",
        "geometry": {
            "type": "Point",
            "coordinates": [
                "-122.00747047559919",
                "37.40938889535565"
            ]
        }
    },
    {
        "id": "19",
        "name": "Nationwide (Veterinary Pet Insurance)",
        "status": "Green",
        "licenceStatus": "Active",
        "customerStatus": "Active",
        "addressType": "Billing",
        "country": "United States",
        "state": "CA",
        "city": "BREA",
        "street": "PO BOX 2477",
        "postal": "92822-2477",
        "add_details": "United States (accuracy : postal code)",
        "geometry": {
            "type": "Point",
            "coordinates": [
                "-100.445882",
                "39.7837304"
            ]
        }
    },
    {
        "id": "13706",
        "name": "NetSuite Incorporated",
        "status": "Green",
        "licenceStatus": "Active",
        "customerStatus": "Active",
        "addressType": "Billing",
        "country": "United States",
        "state": "CA",
        "city": "San Mateo",
        "street": "2955 Campus Drive",
        "postal": "94403-2500",
        "add_details": "2955, Campus Drive, San Mateo, San Mateo County, CAL Fire Northern Region, California, 94403, United States (accuracy : street)",
        "geometry": {
            "type": "Point",
            "coordinates": [
                "-122.3283392650787",
                "37.53463458985446"
            ]
        }
    },
    {
        "id": "71269",
        "name": "NewEgg Inc.",
        "status": "Red",
        "licenceStatus": "Active",
        "customerStatus": "Active",
        "addressType": "Billing",
        "country": "United States",
        "state": "CA",
        "city": "Pico Rivera",
        "street": "9997 Rose Hills Road",
        "postal": "90601",
        "add_details": "9997, Rose Hills Road, Pico Rivera, Los Angeles County, CAL Fire Southern Region, California, 90601, United States (accuracy : street)",
        "geometry": {
            "type": "Point",
            "coordinates": [
                "-118.0515883939394",
                "34.01725578787879"
            ]
        }
    },
    {
        "id": "88237",
        "name": "Nordstrom Inc.",
        "status": "Green",
        "licenceStatus": "Active",
        "customerStatus": "Active",
        "addressType": "Billing",
        "country": "United States",
        "state": "CA",
        "city": "Los Angeles",
        "street": "1013 S. Los Angeles St.",
        "postal": "90015",
        "add_details": "1013, South Los Angeles Street, Fashion District, Downtown, Los Angeles, Los Angeles County, CAL Fire Southern Region, California, 90015, United States (accuracy : street)",
        "geometry": {
            "type": "Point",
            "coordinates": [
                "-118.25617665753715",
                "34.039459102138146"
            ]
        }
    },
    {
        "id": "1061",
        "name": "NVIDIA Corporation",
        "status": "Green",
        "licenceStatus": "Active",
        "customerStatus": "Active",
        "addressType": "Billing",
        "country": "United States",
        "state": "CA",
        "city": "SANTA CLARA",
        "street": "PO Box 58078",
        "postal": "95052-8078",
        "add_details": "United States (accuracy : postal code)",
        "geometry": {
            "type": "Point",
            "coordinates": [
                "-100.445882",
                "39.7837304"
            ]
        }
    },
    {
        "id": "80880",
        "name": "Ooma Inc",
        "status": "Green",
        "licenceStatus": "Active",
        "customerStatus": "Active",
        "addressType": "Billing",
        "country": "United States",
        "state": "CA",
        "city": "PALO ALTO",
        "street": "1840 Embarcadero",
        "postal": "94303",
        "add_details": "1840, Embarcadero Road, Palo Alto, Santa Clara County, California, 94303, United States (accuracy : street)",
        "geometry": {
            "type": "Point",
            "coordinates": [
                "-122.113072297357",
                "37.45060805"
            ]
        }
    },
    {
        "id": "41713",
        "name": "Rakuten Securities, Inc",
        "status": "Green",
        "licenceStatus": "Active",
        "customerStatus": "Active",
        "addressType": "Billing",
        "country": "United States",
        "state": "CA",
        "city": "SANTA CLARA",
        "street": "3945 Freedom Circle, Suite 350",
        "postal": "95054",
        "add_details": "3945, Freedom Circle, Santa Clara, Santa Clara County, California, 95054, United States (accuracy : street)",
        "geometry": {
            "type": "Point",
            "coordinates": [
                "-121.97260136734694",
                "37.390492459183676"
            ]
        }
    },
    {
        "id": "86404",
        "name": "Rapattoni",
        "status": "Green",
        "licenceStatus": "Active",
        "customerStatus": "Active",
        "addressType": "Billing",
        "country": "United States",
        "state": "CA",
        "city": "SIMI VALLEY",
        "street": "98 West Cochran Street",
        "postal": "93065-6218",
        "add_details": "Cochran Street, Simi Valley, Ventura County, CAL Fire Southern Region, California, 90363, United States (accuracy : street)",
        "geometry": {
            "type": "Point",
            "coordinates": [
                "-118.7418998",
                "34.278964"
            ]
        }
    },
    {
        "id": "10151",
        "name": "SanDisk Corporation",
        "status": "Green",
        "licenceStatus": "Active",
        "customerStatus": "Active",
        "addressType": "Billing",
        "country": "United States",
        "state": "CA",
        "city": "Milpitas",
        "street": "601 McCarthy Blvd",
        "postal": "95035",
        "add_details": "FireEye, 601, McCarthy Boulevard, Milpitas, Santa Clara County, CAL Fire Northern Region, California, 95035, United States (accuracy : street)",
        "geometry": {
            "type": "Point",
            "coordinates": [
                "-121.92258906724823",
                "37.4166481"
            ]
        }
    },
    {
        "id": "25994",
        "name": "Stamps.com Inc.",
        "status": "Green",
        "licenceStatus": "Active",
        "customerStatus": "Active",
        "addressType": "Billing",
        "country": "United States",
        "state": "CA",
        "city": "LOS ANGELES",
        "street": "12959 Coral Tree Place",
        "postal": "90066",
        "add_details": "12959, Coral Tree Place, Playa Vista, Los Angeles, Los Angeles County, CAL Fire Southern Region, California, 90066, United States (accuracy : street)",
        "geometry": {
            "type": "Point",
            "coordinates": [
                "-118.42414591836734",
                "33.977285897959185"
            ]
        }
    },
    {
        "id": "89179",
        "name": "SugarSync Inc.",
        "status": "Green",
        "licenceStatus": "Active",
        "customerStatus": "Active",
        "addressType": "Billing",
        "country": "United States",
        "state": "CA",
        "city": "San Mateo",
        "street": "1810 Gateway Drive, Suite 200",
        "postal": "94404",
        "add_details": "1810, Gateway Drive, San Mateo, San Mateo County, CAL Fire Northern Region, California, 94404, United States (accuracy : street)",
        "geometry": {
            "type": "Point",
            "coordinates": [
                "-122.280035",
                "37.557178666666665"
            ]
        }
    },
    {
        "id": "69",
        "name": "The Masters College",
        "status": "Green",
        "licenceStatus": "Active",
        "customerStatus": "Active",
        "addressType": "Billing",
        "country": "United States",
        "state": "CA",
        "city": "Santa Clarita",
        "street": "21726 Placerita Canyon Road",
        "postal": "913211200",
        "add_details": "21726, Placerita Canyon Road, Newhall, Santa Clarita, Los Angeles County, California, 91321, United States (accuracy : street)",
        "geometry": {
            "type": "Point",
            "coordinates": [
                "-118.51813848487156",
                "34.382353311673"
            ]
        }
    },
    {
        "id": "298",
        "name": "UCLA - Housing Administration",
        "status": "Green",
        "licenceStatus": "Active",
        "customerStatus": "Active",
        "addressType": "Billing",
        "country": "United States",
        "state": "CA",
        "city": "Los Angeles",
        "street": "360 De Neve Drive",
        "postal": "90095",
        "add_details": "360, De Neve Drive, Westwood, Los Angeles, Los Angeles County, CAL Fire Southern Region, California, 90024, United States (accuracy : street)",
        "geometry": {
            "type": "Point",
            "coordinates": [
                "-118.45130761596482",
                "34.07117624207868"
            ]
        }
    },
    {
        "id": "108270",
        "name": "UCLA-CTS",
        "status": "Yellow",
        "licenceStatus": "Active",
        "customerStatus": "Active",
        "addressType": "Billing",
        "country": "United States",
        "state": "CA",
        "city": "Los Angeles",
        "street": "10920 Wilshire Blvd, 5th Floor",
        "postal": "90024-6502",
        "add_details": "10920, Wilshire Boulevard, Westwood Village, Westwood, Los Angeles, Los Angeles County, CAL Fire Southern Region, California, 90024, United States (accuracy : street)",
        "geometry": {
            "type": "Point",
            "coordinates": [
                "-118.4446109",
                "34.0582491"
            ]
        }
    },
    {
        "id": "22038",
        "name": "Verizon - FIOS",
        "status": "Green",
        "licenceStatus": "Active",
        "customerStatus": "Active",
        "addressType": "Billing",
        "country": "United States",
        "state": "CA",
        "city": "FOLSOM",
        "street": "600 Coolidge Dr, PO Box 2167",
        "postal": "95763-2167",
        "add_details": "600, Coolidge Drive, Folsom Junction, Folsom, Sacramento County, CAL Fire Northern Region, California, 95630, United States (accuracy : street)",
        "geometry": {
            "type": "Point",
            "coordinates": [
                "-121.182377",
                "38.663706"
            ]
        }
    },
    {
        "id": "97676",
        "name": "Vudu, Inc.",
        "status": "Green",
        "licenceStatus": "Active",
        "customerStatus": "Active",
        "addressType": "Billing",
        "country": "United States",
        "state": "CA",
        "city": "Santa Clara",
        "street": "2980 Bowers Avenue",
        "postal": "95051",
        "add_details": "2980, Bowers Avenue, Santa Clara, Santa Clara County, California, 95051, United States (accuracy : street)",
        "geometry": {
            "type": "Point",
            "coordinates": [
                "-121.977908",
                "37.375116"
            ]
        }
    },
    {
        "id": "1704",
        "name": "WageWorks, Inc.",
        "status": "Green",
        "licenceStatus": "Active",
        "customerStatus": "Active",
        "addressType": "Billing",
        "country": "United States",
        "state": "CA",
        "city": "San Mateo",
        "street": "1100 Park Place, 4th Floor",
        "postal": "94403-1148",
        "add_details": "The Habit Burger Grill, 1100, Park Place, San Mateo, San Mateo County, CAL Fire Northern Region, California, 94403, United States (accuracy : street)",
        "geometry": {
            "type": "Point",
            "coordinates": [
                "-122.2910996",
                "37.5448584"
            ]
        }
    },
    {
        "id": "847",
        "name": "WebSideStory, Inc.",
        "status": "Green",
        "licenceStatus": "Active",
        "customerStatus": "Active",
        "addressType": "Billing",
        "country": "United States",
        "state": "CA",
        "city": "San Diego",
        "street": "10182 Telesis Ct., 6th Fl.",
        "postal": "92121",
        "add_details": "10182, Telesis Court, San Diego, San Diego County, California, 92121, United States (accuracy : street)",
        "geometry": {
            "type": "Point",
            "coordinates": [
                "-117.2078233041469",
                "32.901776645141524"
            ]
        }
    }
]